{
  "type": "FeatureCollection",
  "features": [
    {
      "type": "Feature",
      "geometry": {
        "type": "Point",
        "coordinates": [
          105.8020409,
          21.0110482
        ]
      },
      "properties": {
        "name": "Photocopy",
        "source_university": "Khoa Quốc Tế Đại Học Quốc Gia",
        "type": "printing",
        "category": "student_services"
      }
    },
    {
      "type": "Feature",
      "geometry": {
        "type": "Point",
        "coordinates": [
          105.805828,
          21.0169821
        ]
      },
      "properties": {
        "name": "Dịch Vụ Tráng Scan Film Crop Lab",
        "source_university": "Khoa Quốc Tế Đại Học Quốc Gia",
        "type": "printing",
        "category": "student_services"
      }
    },
    {
      "type": "Feature",
      "geometry": {
        "type": "Point",
        "coordinates": [
          105.8058354,
          21.0231413
        ]
      },
      "properties": {
        "name": "Photo Quang Lịch",
        "source_university": "Khoa Quốc Tế Đại Học Quốc Gia",
        "type": "printing",
        "category": "student_services"
      }
    },
    {
      "type": "Feature",
      "geometry": {
        "type": "Point",
        "coordinates": [
          105.8102259,
          21.0212628
        ]
      },
      "properties": {
        "name": "Dịch Vụ Tráng Scan Film Crop Lab",
        "source_university": "Khoa Quốc Tế Đại Học Quốc Gia",
        "type": "printing",
        "category": "student_services"
      }
    },
    {
      "type": "Feature",
      "geometry": {
        "type": "Point",
        "coordinates": [
          105.7975424,
          20.9868867
        ]
      },
      "properties": {
        "name": "Công ty in ấn phú quý, d10-2 cụm làng nghề tập trung triều khúc,",
        "source_university": "Khoa Quốc Tế Đại Học Quốc Gia",
        "type": "printing",
        "category": "student_services"
      }
    },
    {
      "type": "Feature",
      "geometry": {
        "type": "Point",
        "coordinates": [
          105.8025212,
          21.0192112
        ]
      },
      "properties": {
        "name": "Nhà sách Tiến Thọ",
        "source_university": "Khoa Quốc Tế Đại Học Quốc Gia",
        "type": "bookstore",
        "category": "student_services"
      }
    },
    {
      "type": "Feature",
      "geometry": {
        "type": "Point",
        "coordinates": [
          105.8047012,
          21.0161004
        ]
      },
      "properties": {
        "name": "Nhà sách xưa và nay",
        "source_university": "Khoa Quốc Tế Đại Học Quốc Gia",
        "type": "bookstore",
        "category": "student_services"
      }
    },
    {
      "type": "Feature",
      "geometry": {
        "type": "Point",
        "coordinates": [
          105.8058354,
          21.0231413
        ]
      },
      "properties": {
        "name": "Photo Quang Lịch",
        "source_university": "Khoa Quốc Tế Đại Học Quốc Gia",
        "type": "bookstore",
        "category": "student_services"
      }
    },
    {
      "type": "Feature",
      "geometry": {
        "type": "Point",
        "coordinates": [
          105.8101915,
          20.9966836
        ]
      },
      "properties": {
        "name": "Nhà sách Phương Thu",
        "source_university": "Khoa Quốc Tế Đại Học Quốc Gia",
        "type": "bookstore",
        "category": "student_services"
      }
    },
    {
      "type": "Feature",
      "geometry": {
        "type": "Point",
        "coordinates": [
          105.8122846,
          20.9972432
        ]
      },
      "properties": {
        "name": "ADCBook",
        "source_university": "Khoa Quốc Tế Đại Học Quốc Gia",
        "type": "bookstore",
        "category": "student_services"
      }
    },
    {
      "type": "Feature",
      "geometry": {
        "type": "Point",
        "coordinates": [
          105.8020409,
          21.0110482
        ]
      },
      "properties": {
        "name": "Photocopy",
        "source_university": "RMIT International University Hanoi Campus",
        "type": "printing",
        "category": "student_services"
      }
    },
    {
      "type": "Feature",
      "geometry": {
        "type": "Point",
        "coordinates": [
          105.819913,
          21.0354239
        ]
      },
      "properties": {
        "name": "Photo copy",
        "source_university": "RMIT International University Hanoi Campus",
        "type": "printing",
        "category": "student_services"
      }
    },
    {
      "type": "Feature",
      "geometry": {
        "type": "Point",
        "coordinates": [
          105.8282207,
          21.015882
        ]
      },
      "properties": {
        "name": "In Hồng Chính",
        "source_university": "RMIT International University Hanoi Campus",
        "type": "printing",
        "category": "student_services"
      }
    },
    {
      "type": "Feature",
      "geometry": {
        "type": "Point",
        "coordinates": [
          105.8206375,
          21.0352176
        ]
      },
      "properties": {
        "name": "In ấn, photocopy gần RMIT International University Hanoi Campus",
        "source_university": "RMIT International University Hanoi Campus",
        "type": "printing",
        "category": "student_services"
      }
    },
    {
      "type": "Feature",
      "geometry": {
        "type": "Point",
        "coordinates": [
          105.805828,
          21.0169821
        ]
      },
      "properties": {
        "name": "Dịch Vụ Tráng Scan Film Crop Lab",
        "source_university": "RMIT International University Hanoi Campus",
        "type": "printing",
        "category": "student_services"
      }
    },
    {
      "type": "Feature",
      "geometry": {
        "type": "Point",
        "coordinates": [
          105.8026037,
          21.0290757
        ]
      },
      "properties": {
        "name": "In Lan Hương",
        "source_university": "RMIT International University Hanoi Campus",
        "type": "printing",
        "category": "student_services"
      }
    },
    {
      "type": "Feature",
      "geometry": {
        "type": "Point",
        "coordinates": [
          105.8058354,
          21.0231413
        ]
      },
      "properties": {
        "name": "Photo Quang Lịch",
        "source_university": "RMIT International University Hanoi Campus",
        "type": "printing",
        "category": "student_services"
      }
    },
    {
      "type": "Feature",
      "geometry": {
        "type": "Point",
        "coordinates": [
          105.8102259,
          21.0212628
        ]
      },
      "properties": {
        "name": "Dịch Vụ Tráng Scan Film Crop Lab",
        "source_university": "RMIT International University Hanoi Campus",
        "type": "printing",
        "category": "student_services"
      }
    },
    {
      "type": "Feature",
      "geometry": {
        "type": "Point",
        "coordinates": [
          105.8105604,
          21.0476886
        ]
      },
      "properties": {
        "name": "In ấn, photocopy gần RMIT International University Hanoi Campus",
        "source_university": "RMIT International University Hanoi Campus",
        "type": "printing",
        "category": "student_services"
      }
    },
    {
      "type": "Feature",
      "geometry": {
        "type": "Point",
        "coordinates": [
          105.8307903,
          21.0160608
        ]
      },
      "properties": {
        "name": "In ấn, photocopy gần RMIT International University Hanoi Campus",
        "source_university": "RMIT International University Hanoi Campus",
        "type": "printing",
        "category": "student_services"
      }
    },
    {
      "type": "Feature",
      "geometry": {
        "type": "Point",
        "coordinates": [
          105.8227757,
          21.0256743
        ]
      },
      "properties": {
        "name": "Nhà sách Trí Tuệ - 187G Giảng Võ",
        "source_university": "RMIT International University Hanoi Campus",
        "type": "bookstore",
        "category": "student_services"
      }
    },
    {
      "type": "Feature",
      "geometry": {
        "type": "Point",
        "coordinates": [
          105.8018132,
          21.0366333
        ]
      },
      "properties": {
        "name": "nhà sách Minh Trí",
        "source_university": "RMIT International University Hanoi Campus",
        "type": "bookstore",
        "category": "student_services"
      }
    },
    {
      "type": "Feature",
      "geometry": {
        "type": "Point",
        "coordinates": [
          105.8228227,
          21.0256284
        ]
      },
      "properties": {
        "name": "Nhà sách Trí Tuệ",
        "source_university": "RMIT International University Hanoi Campus",
        "type": "bookstore",
        "category": "student_services"
      }
    },
    {
      "type": "Feature",
      "geometry": {
        "type": "Point",
        "coordinates": [
          105.8025212,
          21.0192112
        ]
      },
      "properties": {
        "name": "Nhà sách Tiến Thọ",
        "source_university": "RMIT International University Hanoi Campus",
        "type": "bookstore",
        "category": "student_services"
      }
    },
    {
      "type": "Feature",
      "geometry": {
        "type": "Point",
        "coordinates": [
          105.8047012,
          21.0161004
        ]
      },
      "properties": {
        "name": "Nhà sách xưa và nay",
        "source_university": "RMIT International University Hanoi Campus",
        "type": "bookstore",
        "category": "student_services"
      }
    },
    {
      "type": "Feature",
      "geometry": {
        "type": "Point",
        "coordinates": [
          105.8058354,
          21.0231413
        ]
      },
      "properties": {
        "name": "Photo Quang Lịch",
        "source_university": "RMIT International University Hanoi Campus",
        "type": "bookstore",
        "category": "student_services"
      }
    },
    {
      "type": "Feature",
      "geometry": {
        "type": "Point",
        "coordinates": [
          105.8095411,
          21.0232052
        ]
      },
      "properties": {
        "name": "Nhà sách Phương Nam",
        "source_university": "RMIT International University Hanoi Campus",
        "type": "bookstore",
        "category": "student_services"
      }
    },
    {
      "type": "Feature",
      "geometry": {
        "type": "Point",
        "coordinates": [
          105.8328512,
          21.0308046
        ]
      },
      "properties": {
        "name": "Nhà xuất bản Thể thao và Du lịch",
        "source_university": "RMIT International University Hanoi Campus",
        "type": "bookstore",
        "category": "student_services"
      }
    },
    {
      "type": "Feature",
      "geometry": {
        "type": "Point",
        "coordinates": [
          105.7959423,
          21.0425971
        ]
      },
      "properties": {
        "name": "Hiệu sách, giáo trình gần RMIT International University Hanoi Campus",
        "source_university": "RMIT International University Hanoi Campus",
        "type": "bookstore",
        "category": "student_services"
      }
    },
    {
      "type": "Feature",
      "geometry": {
        "type": "Point",
        "coordinates": [
          105.832829,
          21.0311558
        ]
      },
      "properties": {
        "name": "Trung tâm Lao động ngoài nước",
        "source_university": "RMIT International University Hanoi Campus",
        "type": "career",
        "category": "student_services"
      }
    },
    {
      "type": "Feature",
      "geometry": {
        "type": "Point",
        "coordinates": [
          105.819913,
          21.0354239
        ]
      },
      "properties": {
        "name": "Photo copy",
        "source_university": "Đại Học Nguyễn Trãi",
        "type": "printing",
        "category": "student_services"
      }
    },
    {
      "type": "Feature",
      "geometry": {
        "type": "Point",
        "coordinates": [
          105.8206375,
          21.0352176
        ]
      },
      "properties": {
        "name": "In ấn, photocopy gần Đại Học Nguyễn Trãi",
        "source_university": "Đại Học Nguyễn Trãi",
        "type": "printing",
        "category": "student_services"
      }
    },
    {
      "type": "Feature",
      "geometry": {
        "type": "Point",
        "coordinates": [
          105.805828,
          21.0169821
        ]
      },
      "properties": {
        "name": "Dịch Vụ Tráng Scan Film Crop Lab",
        "source_university": "Đại Học Nguyễn Trãi",
        "type": "printing",
        "category": "student_services"
      }
    },
    {
      "type": "Feature",
      "geometry": {
        "type": "Point",
        "coordinates": [
          105.8026037,
          21.0290757
        ]
      },
      "properties": {
        "name": "In Lan Hương",
        "source_university": "Đại Học Nguyễn Trãi",
        "type": "printing",
        "category": "student_services"
      }
    },
    {
      "type": "Feature",
      "geometry": {
        "type": "Point",
        "coordinates": [
          105.8058354,
          21.0231413
        ]
      },
      "properties": {
        "name": "Photo Quang Lịch",
        "source_university": "Đại Học Nguyễn Trãi",
        "type": "printing",
        "category": "student_services"
      }
    },
    {
      "type": "Feature",
      "geometry": {
        "type": "Point",
        "coordinates": [
          105.8102259,
          21.0212628
        ]
      },
      "properties": {
        "name": "Dịch Vụ Tráng Scan Film Crop Lab",
        "source_university": "Đại Học Nguyễn Trãi",
        "type": "printing",
        "category": "student_services"
      }
    },
    {
      "type": "Feature",
      "geometry": {
        "type": "Point",
        "coordinates": [
          105.8105604,
          21.0476886
        ]
      },
      "properties": {
        "name": "In ấn, photocopy gần Đại Học Nguyễn Trãi",
        "source_university": "Đại Học Nguyễn Trãi",
        "type": "printing",
        "category": "student_services"
      }
    },
    {
      "type": "Feature",
      "geometry": {
        "type": "Point",
        "coordinates": [
          105.8227757,
          21.0256743
        ]
      },
      "properties": {
        "name": "Nhà sách Trí Tuệ - 187G Giảng Võ",
        "source_university": "Đại Học Nguyễn Trãi",
        "type": "bookstore",
        "category": "student_services"
      }
    },
    {
      "type": "Feature",
      "geometry": {
        "type": "Point",
        "coordinates": [
          105.8018132,
          21.0366333
        ]
      },
      "properties": {
        "name": "nhà sách Minh Trí",
        "source_university": "Đại Học Nguyễn Trãi",
        "type": "bookstore",
        "category": "student_services"
      }
    },
    {
      "type": "Feature",
      "geometry": {
        "type": "Point",
        "coordinates": [
          105.8228227,
          21.0256284
        ]
      },
      "properties": {
        "name": "Nhà sách Trí Tuệ",
        "source_university": "Đại Học Nguyễn Trãi",
        "type": "bookstore",
        "category": "student_services"
      }
    },
    {
      "type": "Feature",
      "geometry": {
        "type": "Point",
        "coordinates": [
          105.8025212,
          21.0192112
        ]
      },
      "properties": {
        "name": "Nhà sách Tiến Thọ",
        "source_university": "Đại Học Nguyễn Trãi",
        "type": "bookstore",
        "category": "student_services"
      }
    },
    {
      "type": "Feature",
      "geometry": {
        "type": "Point",
        "coordinates": [
          105.8058354,
          21.0231413
        ]
      },
      "properties": {
        "name": "Photo Quang Lịch",
        "source_university": "Đại Học Nguyễn Trãi",
        "type": "bookstore",
        "category": "student_services"
      }
    },
    {
      "type": "Feature",
      "geometry": {
        "type": "Point",
        "coordinates": [
          105.8095411,
          21.0232052
        ]
      },
      "properties": {
        "name": "Nhà sách Phương Nam",
        "source_university": "Đại Học Nguyễn Trãi",
        "type": "bookstore",
        "category": "student_services"
      }
    },
    {
      "type": "Feature",
      "geometry": {
        "type": "Point",
        "coordinates": [
          105.8328512,
          21.0308046
        ]
      },
      "properties": {
        "name": "Nhà xuất bản Thể thao và Du lịch",
        "source_university": "Đại Học Nguyễn Trãi",
        "type": "bookstore",
        "category": "student_services"
      }
    },
    {
      "type": "Feature",
      "geometry": {
        "type": "Point",
        "coordinates": [
          105.7959423,
          21.0425971
        ]
      },
      "properties": {
        "name": "Hiệu sách, giáo trình gần Đại Học Nguyễn Trãi",
        "source_university": "Đại Học Nguyễn Trãi",
        "type": "bookstore",
        "category": "student_services"
      }
    },
    {
      "type": "Feature",
      "geometry": {
        "type": "Point",
        "coordinates": [
          105.832829,
          21.0311558
        ]
      },
      "properties": {
        "name": "Trung tâm Lao động ngoài nước",
        "source_university": "Đại Học Nguyễn Trãi",
        "type": "career",
        "category": "student_services"
      }
    },
    {
      "type": "Feature",
      "geometry": {
        "type": "Point",
        "coordinates": [
          105.7818103,
          21.0606109
        ]
      },
      "properties": {
        "name": "In Ấn Mạnh Lương",
        "source_university": "Trường Đại học Khoa học và Công nghệ Hà Nội",
        "type": "printing",
        "category": "student_services"
      }
    },
    {
      "type": "Feature",
      "geometry": {
        "type": "Point",
        "coordinates": [
          105.819913,
          21.0354239
        ]
      },
      "properties": {
        "name": "Photo copy",
        "source_university": "Trường Đại học Khoa học và Công nghệ Hà Nội",
        "type": "printing",
        "category": "student_services"
      }
    },
    {
      "type": "Feature",
      "geometry": {
        "type": "Point",
        "coordinates": [
          105.8206375,
          21.0352176
        ]
      },
      "properties": {
        "name": "In ấn, photocopy gần Trường Đại học Khoa học và Công nghệ Hà Nội",
        "source_university": "Trường Đại học Khoa học và Công nghệ Hà Nội",
        "type": "printing",
        "category": "student_services"
      }
    },
    {
      "type": "Feature",
      "geometry": {
        "type": "Point",
        "coordinates": [
          105.7816752,
          21.0606696
        ]
      },
      "properties": {
        "name": "In ấn, photocopy gần Trường Đại học Khoa học và Công nghệ Hà Nội",
        "source_university": "Trường Đại học Khoa học và Công nghệ Hà Nội",
        "type": "printing",
        "category": "student_services"
      }
    },
    {
      "type": "Feature",
      "geometry": {
        "type": "Point",
        "coordinates": [
          105.8026037,
          21.0290757
        ]
      },
      "properties": {
        "name": "In Lan Hương",
        "source_university": "Trường Đại học Khoa học và Công nghệ Hà Nội",
        "type": "printing",
        "category": "student_services"
      }
    },
    {
      "type": "Feature",
      "geometry": {
        "type": "Point",
        "coordinates": [
          105.8105604,
          21.0476886
        ]
      },
      "properties": {
        "name": "In ấn, photocopy gần Trường Đại học Khoa học và Công nghệ Hà Nội",
        "source_university": "Trường Đại học Khoa học và Công nghệ Hà Nội",
        "type": "printing",
        "category": "student_services"
      }
    },
    {
      "type": "Feature",
      "geometry": {
        "type": "Point",
        "coordinates": [
          105.7842032,
          21.0465122
        ]
      },
      "properties": {
        "name": "In ấn, photocopy gần Trường Đại học Khoa học và Công nghệ Hà Nội",
        "source_university": "Trường Đại học Khoa học và Công nghệ Hà Nội",
        "type": "printing",
        "category": "student_services"
      }
    },
    {
      "type": "Feature",
      "geometry": {
        "type": "Point",
        "coordinates": [
          105.7842037,
          21.0466927
        ]
      },
      "properties": {
        "name": "In ấn, photocopy gần Trường Đại học Khoa học và Công nghệ Hà Nội",
        "source_university": "Trường Đại học Khoa học và Công nghệ Hà Nội",
        "type": "printing",
        "category": "student_services"
      }
    },
    {
      "type": "Feature",
      "geometry": {
        "type": "Point",
        "coordinates": [
          105.7843197,
          21.0475219
        ]
      },
      "properties": {
        "name": "In ấn, photocopy gần Trường Đại học Khoa học và Công nghệ Hà Nội",
        "source_university": "Trường Đại học Khoa học và Công nghệ Hà Nội",
        "type": "printing",
        "category": "student_services"
      }
    },
    {
      "type": "Feature",
      "geometry": {
        "type": "Point",
        "coordinates": [
          105.7881889,
          21.044299
        ]
      },
      "properties": {
        "name": "In ấn, photocopy gần Trường Đại học Khoa học và Công nghệ Hà Nội",
        "source_university": "Trường Đại học Khoa học và Công nghệ Hà Nội",
        "type": "printing",
        "category": "student_services"
      }
    },
    {
      "type": "Feature",
      "geometry": {
        "type": "Point",
        "coordinates": [
          105.7854681,
          21.0459016
        ]
      },
      "properties": {
        "name": "In ấn Vân Chủ",
        "source_university": "Trường Đại học Khoa học và Công nghệ Hà Nội",
        "type": "printing",
        "category": "student_services"
      }
    },
    {
      "type": "Feature",
      "geometry": {
        "type": "Point",
        "coordinates": [
          105.7901106,
          21.0436478
        ]
      },
      "properties": {
        "name": "Thành Đạt Photocopy",
        "source_university": "Trường Đại học Khoa học và Công nghệ Hà Nội",
        "type": "printing",
        "category": "student_services"
      }
    },
    {
      "type": "Feature",
      "geometry": {
        "type": "Point",
        "coordinates": [
          105.781495,
          21.0443756
        ]
      },
      "properties": {
        "name": "In ấn, photocopy gần Trường Đại học Khoa học và Công nghệ Hà Nội",
        "source_university": "Trường Đại học Khoa học và Công nghệ Hà Nội",
        "type": "printing",
        "category": "student_services"
      }
    },
    {
      "type": "Feature",
      "geometry": {
        "type": "Point",
        "coordinates": [
          105.7836726,
          21.0403353
        ]
      },
      "properties": {
        "name": "In ấn, photocopy gần Trường Đại học Khoa học và Công nghệ Hà Nội",
        "source_university": "Trường Đại học Khoa học và Công nghệ Hà Nội",
        "type": "printing",
        "category": "student_services"
      }
    },
    {
      "type": "Feature",
      "geometry": {
        "type": "Point",
        "coordinates": [
          105.7845544,
          21.0404832
        ]
      },
      "properties": {
        "name": "Ngọc Vinh Photocopy",
        "source_university": "Trường Đại học Khoa học và Công nghệ Hà Nội",
        "type": "printing",
        "category": "student_services"
      }
    },
    {
      "type": "Feature",
      "geometry": {
        "type": "Point",
        "coordinates": [
          105.7821102,
          21.0382538
        ]
      },
      "properties": {
        "name": "Photo Gia Hay",
        "source_university": "Trường Đại học Khoa học và Công nghệ Hà Nội",
        "type": "printing",
        "category": "student_services"
      }
    },
    {
      "type": "Feature",
      "geometry": {
        "type": "Point",
        "coordinates": [
          105.8018132,
          21.0366333
        ]
      },
      "properties": {
        "name": "nhà sách Minh Trí",
        "source_university": "Trường Đại học Khoa học và Công nghệ Hà Nội",
        "type": "bookstore",
        "category": "student_services"
      }
    },
    {
      "type": "Feature",
      "geometry": {
        "type": "Point",
        "coordinates": [
          105.7813734,
          21.0417064
        ]
      },
      "properties": {
        "name": "Nhà sách Phương Anh",
        "source_university": "Trường Đại học Khoa học và Công nghệ Hà Nội",
        "type": "bookstore",
        "category": "student_services"
      }
    },
    {
      "type": "Feature",
      "geometry": {
        "type": "Point",
        "coordinates": [
          105.7813339,
          21.0417081
        ]
      },
      "properties": {
        "name": "Nhà sách Quang Khải",
        "source_university": "Trường Đại học Khoa học và Công nghệ Hà Nội",
        "type": "bookstore",
        "category": "student_services"
      }
    },
    {
      "type": "Feature",
      "geometry": {
        "type": "Point",
        "coordinates": [
          105.7826669,
          21.0416543
        ]
      },
      "properties": {
        "name": "Nhà sách Minh Hải",
        "source_university": "Trường Đại học Khoa học và Công nghệ Hà Nội",
        "type": "bookstore",
        "category": "student_services"
      }
    },
    {
      "type": "Feature",
      "geometry": {
        "type": "Point",
        "coordinates": [
          105.7827819,
          21.0416507
        ]
      },
      "properties": {
        "name": "Nhà sách Quang Bình",
        "source_university": "Trường Đại học Khoa học và Công nghệ Hà Nội",
        "type": "bookstore",
        "category": "student_services"
      }
    },
    {
      "type": "Feature",
      "geometry": {
        "type": "Point",
        "coordinates": [
          105.7820469,
          21.0473521
        ]
      },
      "properties": {
        "name": "Nhà xuất bản Công Thương",
        "source_university": "Trường Đại học Khoa học và Công nghệ Hà Nội",
        "type": "bookstore",
        "category": "student_services"
      }
    },
    {
      "type": "Feature",
      "geometry": {
        "type": "Point",
        "coordinates": [
          105.7815276,
          21.0417006
        ]
      },
      "properties": {
        "name": "Nhà sách Lâm Oanh",
        "source_university": "Trường Đại học Khoa học và Công nghệ Hà Nội",
        "type": "bookstore",
        "category": "student_services"
      }
    },
    {
      "type": "Feature",
      "geometry": {
        "type": "Point",
        "coordinates": [
          105.7824646,
          21.0416621
        ]
      },
      "properties": {
        "name": "Nhà sách Trang Hiếu",
        "source_university": "Trường Đại học Khoa học và Công nghệ Hà Nội",
        "type": "bookstore",
        "category": "student_services"
      }
    },
    {
      "type": "Feature",
      "geometry": {
        "type": "Point",
        "coordinates": [
          105.781769,
          21.0416837
        ]
      },
      "properties": {
        "name": "Nhà sách Ngoại Ngữ",
        "source_university": "Trường Đại học Khoa học và Công nghệ Hà Nội",
        "type": "bookstore",
        "category": "student_services"
      }
    },
    {
      "type": "Feature",
      "geometry": {
        "type": "Point",
        "coordinates": [
          105.7867026,
          21.0419774
        ]
      },
      "properties": {
        "name": "Sách Quang Minh",
        "source_university": "Trường Đại học Khoa học và Công nghệ Hà Nội",
        "type": "bookstore",
        "category": "student_services"
      }
    },
    {
      "type": "Feature",
      "geometry": {
        "type": "Point",
        "coordinates": [
          105.7812319,
          21.0401194
        ]
      },
      "properties": {
        "name": "Sách hạ giá",
        "source_university": "Trường Đại học Khoa học và Công nghệ Hà Nội",
        "type": "bookstore",
        "category": "student_services"
      }
    },
    {
      "type": "Feature",
      "geometry": {
        "type": "Point",
        "coordinates": [
          105.7812312,
          21.0400699
        ]
      },
      "properties": {
        "name": "Nhà sách Ngoại ngữ",
        "source_university": "Trường Đại học Khoa học và Công nghệ Hà Nội",
        "type": "bookstore",
        "category": "student_services"
      }
    },
    {
      "type": "Feature",
      "geometry": {
        "type": "Point",
        "coordinates": [
          105.7822519,
          21.0368697
        ]
      },
      "properties": {
        "name": "VN Book Store",
        "source_university": "Trường Đại học Khoa học và Công nghệ Hà Nội",
        "type": "bookstore",
        "category": "student_services"
      }
    },
    {
      "type": "Feature",
      "geometry": {
        "type": "Point",
        "coordinates": [
          105.782983,
          21.0368596
        ]
      },
      "properties": {
        "name": "Nhà sách Sư phạm",
        "source_university": "Trường Đại học Khoa học và Công nghệ Hà Nội",
        "type": "bookstore",
        "category": "student_services"
      }
    },
    {
      "type": "Feature",
      "geometry": {
        "type": "Point",
        "coordinates": [
          105.7842007,
          21.0368403
        ]
      },
      "properties": {
        "name": "Nhà sách Học liệu Sư phạm",
        "source_university": "Trường Đại học Khoa học và Công nghệ Hà Nội",
        "type": "bookstore",
        "category": "student_services"
      }
    },
    {
      "type": "Feature",
      "geometry": {
        "type": "Point",
        "coordinates": [
          105.7819606,
          21.0358245
        ]
      },
      "properties": {
        "name": "Nhã Nam Books N' Coffee",
        "source_university": "Trường Đại học Khoa học và Công nghệ Hà Nội",
        "type": "bookstore",
        "category": "student_services"
      }
    },
    {
      "type": "Feature",
      "geometry": {
        "type": "Point",
        "coordinates": [
          105.7959423,
          21.0425971
        ]
      },
      "properties": {
        "name": "Hiệu sách, giáo trình gần Trường Đại học Khoa học và Công nghệ Hà Nội",
        "source_university": "Trường Đại học Khoa học và Công nghệ Hà Nội",
        "type": "bookstore",
        "category": "student_services"
      }
    },
    {
      "type": "Feature",
      "geometry": {
        "type": "Point",
        "coordinates": [
          105.7831995,
          21.0470577
        ]
      },
      "properties": {
        "name": "Công ty tư vấn du học Thiên Bình",
        "source_university": "Trường Đại học Khoa học và Công nghệ Hà Nội",
        "type": "career",
        "category": "student_services"
      }
    },
    {
      "type": "Feature",
      "geometry": {
        "type": "Point",
        "coordinates": [
          105.7862354,
          21.0454042
        ]
      },
      "properties": {
        "name": "Hanna",
        "source_university": "Trường Đại học Khoa học và Công nghệ Hà Nội",
        "type": "career",
        "category": "student_services"
      }
    },
    {
      "type": "Feature",
      "geometry": {
        "type": "Point",
        "coordinates": [
          105.785543,
          21.0453368
        ]
      },
      "properties": {
        "name": "Vinasimex",
        "source_university": "Trường Đại học Khoa học và Công nghệ Hà Nội",
        "type": "career",
        "category": "student_services"
      }
    },
    {
      "type": "Feature",
      "geometry": {
        "type": "Point",
        "coordinates": [
          105.7858436,
          21.0449105
        ]
      },
      "properties": {
        "name": "Hoàng Anh Visa",
        "source_university": "Trường Đại học Khoa học và Công nghệ Hà Nội",
        "type": "career",
        "category": "student_services"
      }
    },
    {
      "type": "Feature",
      "geometry": {
        "type": "Point",
        "coordinates": [
          105.7859759,
          21.044491
        ]
      },
      "properties": {
        "name": "Công ty Phúc Thái",
        "source_university": "Trường Đại học Khoa học và Công nghệ Hà Nội",
        "type": "career",
        "category": "student_services"
      }
    },
    {
      "type": "Feature",
      "geometry": {
        "type": "Point",
        "coordinates": [
          105.7858586,
          21.0435659
        ]
      },
      "properties": {
        "name": "Du học Đại Nam",
        "source_university": "Trường Đại học Khoa học và Công nghệ Hà Nội",
        "type": "career",
        "category": "student_services"
      }
    },
    {
      "type": "Feature",
      "geometry": {
        "type": "Point",
        "coordinates": [
          105.7850556,
          21.0436264
        ]
      },
      "properties": {
        "name": "TCGroup",
        "source_university": "Trường Đại học Khoa học và Công nghệ Hà Nội",
        "type": "career",
        "category": "student_services"
      }
    },
    {
      "type": "Feature",
      "geometry": {
        "type": "Point",
        "coordinates": [
          105.7856026,
          21.0428617
        ]
      },
      "properties": {
        "name": "Công ty Du học Úc VTN",
        "source_university": "Trường Đại học Khoa học và Công nghệ Hà Nội",
        "type": "career",
        "category": "student_services"
      }
    },
    {
      "type": "Feature",
      "geometry": {
        "type": "Point",
        "coordinates": [
          105.7869079,
          21.0424906
        ]
      },
      "properties": {
        "name": "Du học Quốc tế Nam Huy",
        "source_university": "Trường Đại học Khoa học và Công nghệ Hà Nội",
        "type": "career",
        "category": "student_services"
      }
    },
    {
      "type": "Feature",
      "geometry": {
        "type": "Point",
        "coordinates": [
          105.7847074,
          21.0455234
        ]
      },
      "properties": {
        "name": "Haisuco",
        "source_university": "Trường Đại học Khoa học và Công nghệ Hà Nội",
        "type": "career",
        "category": "student_services"
      }
    },
    {
      "type": "Feature",
      "geometry": {
        "type": "Point",
        "coordinates": [
          105.7856654,
          21.0454691
        ]
      },
      "properties": {
        "name": "Công ty Sakura",
        "source_university": "Trường Đại học Khoa học và Công nghệ Hà Nội",
        "type": "career",
        "category": "student_services"
      }
    },
    {
      "type": "Feature",
      "geometry": {
        "type": "Point",
        "coordinates": [
          105.7854543,
          21.045564
        ]
      },
      "properties": {
        "name": "Bảo An Education",
        "source_university": "Trường Đại học Khoa học và Công nghệ Hà Nội",
        "type": "career",
        "category": "student_services"
      }
    },
    {
      "type": "Feature",
      "geometry": {
        "type": "Point",
        "coordinates": [
          105.7840873,
          21.0451104
        ]
      },
      "properties": {
        "name": "Haisuco",
        "source_university": "Trường Đại học Khoa học và Công nghệ Hà Nội",
        "type": "career",
        "category": "student_services"
      }
    },
    {
      "type": "Feature",
      "geometry": {
        "type": "Point",
        "coordinates": [
          105.7818103,
          21.0606109
        ]
      },
      "properties": {
        "name": "In Ấn Mạnh Lương",
        "source_university": "Học Viện Khoa Học Và Công Nghệ",
        "type": "printing",
        "category": "student_services"
      }
    },
    {
      "type": "Feature",
      "geometry": {
        "type": "Point",
        "coordinates": [
          105.819913,
          21.0354239
        ]
      },
      "properties": {
        "name": "Photo copy",
        "source_university": "Học Viện Khoa Học Và Công Nghệ",
        "type": "printing",
        "category": "student_services"
      }
    },
    {
      "type": "Feature",
      "geometry": {
        "type": "Point",
        "coordinates": [
          105.8206375,
          21.0352176
        ]
      },
      "properties": {
        "name": "In ấn, photocopy gần Học Viện Khoa Học Và Công Nghệ",
        "source_university": "Học Viện Khoa Học Và Công Nghệ",
        "type": "printing",
        "category": "student_services"
      }
    },
    {
      "type": "Feature",
      "geometry": {
        "type": "Point",
        "coordinates": [
          105.7816752,
          21.0606696
        ]
      },
      "properties": {
        "name": "In ấn, photocopy gần Học Viện Khoa Học Và Công Nghệ",
        "source_university": "Học Viện Khoa Học Và Công Nghệ",
        "type": "printing",
        "category": "student_services"
      }
    },
    {
      "type": "Feature",
      "geometry": {
        "type": "Point",
        "coordinates": [
          105.8026037,
          21.0290757
        ]
      },
      "properties": {
        "name": "In Lan Hương",
        "source_university": "Học Viện Khoa Học Và Công Nghệ",
        "type": "printing",
        "category": "student_services"
      }
    },
    {
      "type": "Feature",
      "geometry": {
        "type": "Point",
        "coordinates": [
          105.8105604,
          21.0476886
        ]
      },
      "properties": {
        "name": "In ấn, photocopy gần Học Viện Khoa Học Và Công Nghệ",
        "source_university": "Học Viện Khoa Học Và Công Nghệ",
        "type": "printing",
        "category": "student_services"
      }
    },
    {
      "type": "Feature",
      "geometry": {
        "type": "Point",
        "coordinates": [
          105.7842032,
          21.0465122
        ]
      },
      "properties": {
        "name": "In ấn, photocopy gần Học Viện Khoa Học Và Công Nghệ",
        "source_university": "Học Viện Khoa Học Và Công Nghệ",
        "type": "printing",
        "category": "student_services"
      }
    },
    {
      "type": "Feature",
      "geometry": {
        "type": "Point",
        "coordinates": [
          105.7842037,
          21.0466927
        ]
      },
      "properties": {
        "name": "In ấn, photocopy gần Học Viện Khoa Học Và Công Nghệ",
        "source_university": "Học Viện Khoa Học Và Công Nghệ",
        "type": "printing",
        "category": "student_services"
      }
    },
    {
      "type": "Feature",
      "geometry": {
        "type": "Point",
        "coordinates": [
          105.7843197,
          21.0475219
        ]
      },
      "properties": {
        "name": "In ấn, photocopy gần Học Viện Khoa Học Và Công Nghệ",
        "source_university": "Học Viện Khoa Học Và Công Nghệ",
        "type": "printing",
        "category": "student_services"
      }
    },
    {
      "type": "Feature",
      "geometry": {
        "type": "Point",
        "coordinates": [
          105.7881889,
          21.044299
        ]
      },
      "properties": {
        "name": "In ấn, photocopy gần Học Viện Khoa Học Và Công Nghệ",
        "source_university": "Học Viện Khoa Học Và Công Nghệ",
        "type": "printing",
        "category": "student_services"
      }
    },
    {
      "type": "Feature",
      "geometry": {
        "type": "Point",
        "coordinates": [
          105.7854681,
          21.0459016
        ]
      },
      "properties": {
        "name": "In ấn Vân Chủ",
        "source_university": "Học Viện Khoa Học Và Công Nghệ",
        "type": "printing",
        "category": "student_services"
      }
    },
    {
      "type": "Feature",
      "geometry": {
        "type": "Point",
        "coordinates": [
          105.7901106,
          21.0436478
        ]
      },
      "properties": {
        "name": "Thành Đạt Photocopy",
        "source_university": "Học Viện Khoa Học Và Công Nghệ",
        "type": "printing",
        "category": "student_services"
      }
    },
    {
      "type": "Feature",
      "geometry": {
        "type": "Point",
        "coordinates": [
          105.781495,
          21.0443756
        ]
      },
      "properties": {
        "name": "In ấn, photocopy gần Học Viện Khoa Học Và Công Nghệ",
        "source_university": "Học Viện Khoa Học Và Công Nghệ",
        "type": "printing",
        "category": "student_services"
      }
    },
    {
      "type": "Feature",
      "geometry": {
        "type": "Point",
        "coordinates": [
          105.7836726,
          21.0403353
        ]
      },
      "properties": {
        "name": "In ấn, photocopy gần Học Viện Khoa Học Và Công Nghệ",
        "source_university": "Học Viện Khoa Học Và Công Nghệ",
        "type": "printing",
        "category": "student_services"
      }
    },
    {
      "type": "Feature",
      "geometry": {
        "type": "Point",
        "coordinates": [
          105.7845544,
          21.0404832
        ]
      },
      "properties": {
        "name": "Ngọc Vinh Photocopy",
        "source_university": "Học Viện Khoa Học Và Công Nghệ",
        "type": "printing",
        "category": "student_services"
      }
    },
    {
      "type": "Feature",
      "geometry": {
        "type": "Point",
        "coordinates": [
          105.7821102,
          21.0382538
        ]
      },
      "properties": {
        "name": "Photo Gia Hay",
        "source_university": "Học Viện Khoa Học Và Công Nghệ",
        "type": "printing",
        "category": "student_services"
      }
    },
    {
      "type": "Feature",
      "geometry": {
        "type": "Point",
        "coordinates": [
          105.8018132,
          21.0366333
        ]
      },
      "properties": {
        "name": "nhà sách Minh Trí",
        "source_university": "Học Viện Khoa Học Và Công Nghệ",
        "type": "bookstore",
        "category": "student_services"
      }
    },
    {
      "type": "Feature",
      "geometry": {
        "type": "Point",
        "coordinates": [
          105.7813734,
          21.0417064
        ]
      },
      "properties": {
        "name": "Nhà sách Phương Anh",
        "source_university": "Học Viện Khoa Học Và Công Nghệ",
        "type": "bookstore",
        "category": "student_services"
      }
    },
    {
      "type": "Feature",
      "geometry": {
        "type": "Point",
        "coordinates": [
          105.7813339,
          21.0417081
        ]
      },
      "properties": {
        "name": "Nhà sách Quang Khải",
        "source_university": "Học Viện Khoa Học Và Công Nghệ",
        "type": "bookstore",
        "category": "student_services"
      }
    },
    {
      "type": "Feature",
      "geometry": {
        "type": "Point",
        "coordinates": [
          105.7826669,
          21.0416543
        ]
      },
      "properties": {
        "name": "Nhà sách Minh Hải",
        "source_university": "Học Viện Khoa Học Và Công Nghệ",
        "type": "bookstore",
        "category": "student_services"
      }
    },
    {
      "type": "Feature",
      "geometry": {
        "type": "Point",
        "coordinates": [
          105.7827819,
          21.0416507
        ]
      },
      "properties": {
        "name": "Nhà sách Quang Bình",
        "source_university": "Học Viện Khoa Học Và Công Nghệ",
        "type": "bookstore",
        "category": "student_services"
      }
    },
    {
      "type": "Feature",
      "geometry": {
        "type": "Point",
        "coordinates": [
          105.7820469,
          21.0473521
        ]
      },
      "properties": {
        "name": "Nhà xuất bản Công Thương",
        "source_university": "Học Viện Khoa Học Và Công Nghệ",
        "type": "bookstore",
        "category": "student_services"
      }
    },
    {
      "type": "Feature",
      "geometry": {
        "type": "Point",
        "coordinates": [
          105.7815276,
          21.0417006
        ]
      },
      "properties": {
        "name": "Nhà sách Lâm Oanh",
        "source_university": "Học Viện Khoa Học Và Công Nghệ",
        "type": "bookstore",
        "category": "student_services"
      }
    },
    {
      "type": "Feature",
      "geometry": {
        "type": "Point",
        "coordinates": [
          105.7824646,
          21.0416621
        ]
      },
      "properties": {
        "name": "Nhà sách Trang Hiếu",
        "source_university": "Học Viện Khoa Học Và Công Nghệ",
        "type": "bookstore",
        "category": "student_services"
      }
    },
    {
      "type": "Feature",
      "geometry": {
        "type": "Point",
        "coordinates": [
          105.781769,
          21.0416837
        ]
      },
      "properties": {
        "name": "Nhà sách Ngoại Ngữ",
        "source_university": "Học Viện Khoa Học Và Công Nghệ",
        "type": "bookstore",
        "category": "student_services"
      }
    },
    {
      "type": "Feature",
      "geometry": {
        "type": "Point",
        "coordinates": [
          105.7867026,
          21.0419774
        ]
      },
      "properties": {
        "name": "Sách Quang Minh",
        "source_university": "Học Viện Khoa Học Và Công Nghệ",
        "type": "bookstore",
        "category": "student_services"
      }
    },
    {
      "type": "Feature",
      "geometry": {
        "type": "Point",
        "coordinates": [
          105.7812319,
          21.0401194
        ]
      },
      "properties": {
        "name": "Sách hạ giá",
        "source_university": "Học Viện Khoa Học Và Công Nghệ",
        "type": "bookstore",
        "category": "student_services"
      }
    },
    {
      "type": "Feature",
      "geometry": {
        "type": "Point",
        "coordinates": [
          105.7812312,
          21.0400699
        ]
      },
      "properties": {
        "name": "Nhà sách Ngoại ngữ",
        "source_university": "Học Viện Khoa Học Và Công Nghệ",
        "type": "bookstore",
        "category": "student_services"
      }
    },
    {
      "type": "Feature",
      "geometry": {
        "type": "Point",
        "coordinates": [
          105.7822519,
          21.0368697
        ]
      },
      "properties": {
        "name": "VN Book Store",
        "source_university": "Học Viện Khoa Học Và Công Nghệ",
        "type": "bookstore",
        "category": "student_services"
      }
    },
    {
      "type": "Feature",
      "geometry": {
        "type": "Point",
        "coordinates": [
          105.782983,
          21.0368596
        ]
      },
      "properties": {
        "name": "Nhà sách Sư phạm",
        "source_university": "Học Viện Khoa Học Và Công Nghệ",
        "type": "bookstore",
        "category": "student_services"
      }
    },
    {
      "type": "Feature",
      "geometry": {
        "type": "Point",
        "coordinates": [
          105.7842007,
          21.0368403
        ]
      },
      "properties": {
        "name": "Nhà sách Học liệu Sư phạm",
        "source_university": "Học Viện Khoa Học Và Công Nghệ",
        "type": "bookstore",
        "category": "student_services"
      }
    },
    {
      "type": "Feature",
      "geometry": {
        "type": "Point",
        "coordinates": [
          105.7819606,
          21.0358245
        ]
      },
      "properties": {
        "name": "Nhã Nam Books N' Coffee",
        "source_university": "Học Viện Khoa Học Và Công Nghệ",
        "type": "bookstore",
        "category": "student_services"
      }
    },
    {
      "type": "Feature",
      "geometry": {
        "type": "Point",
        "coordinates": [
          105.7959423,
          21.0425971
        ]
      },
      "properties": {
        "name": "Hiệu sách, giáo trình gần Học Viện Khoa Học Và Công Nghệ",
        "source_university": "Học Viện Khoa Học Và Công Nghệ",
        "type": "bookstore",
        "category": "student_services"
      }
    },
    {
      "type": "Feature",
      "geometry": {
        "type": "Point",
        "coordinates": [
          105.7831995,
          21.0470577
        ]
      },
      "properties": {
        "name": "Công ty tư vấn du học Thiên Bình",
        "source_university": "Học Viện Khoa Học Và Công Nghệ",
        "type": "career",
        "category": "student_services"
      }
    },
    {
      "type": "Feature",
      "geometry": {
        "type": "Point",
        "coordinates": [
          105.7862354,
          21.0454042
        ]
      },
      "properties": {
        "name": "Hanna",
        "source_university": "Học Viện Khoa Học Và Công Nghệ",
        "type": "career",
        "category": "student_services"
      }
    },
    {
      "type": "Feature",
      "geometry": {
        "type": "Point",
        "coordinates": [
          105.785543,
          21.0453368
        ]
      },
      "properties": {
        "name": "Vinasimex",
        "source_university": "Học Viện Khoa Học Và Công Nghệ",
        "type": "career",
        "category": "student_services"
      }
    },
    {
      "type": "Feature",
      "geometry": {
        "type": "Point",
        "coordinates": [
          105.7858436,
          21.0449105
        ]
      },
      "properties": {
        "name": "Hoàng Anh Visa",
        "source_university": "Học Viện Khoa Học Và Công Nghệ",
        "type": "career",
        "category": "student_services"
      }
    },
    {
      "type": "Feature",
      "geometry": {
        "type": "Point",
        "coordinates": [
          105.7859759,
          21.044491
        ]
      },
      "properties": {
        "name": "Công ty Phúc Thái",
        "source_university": "Học Viện Khoa Học Và Công Nghệ",
        "type": "career",
        "category": "student_services"
      }
    },
    {
      "type": "Feature",
      "geometry": {
        "type": "Point",
        "coordinates": [
          105.7858586,
          21.0435659
        ]
      },
      "properties": {
        "name": "Du học Đại Nam",
        "source_university": "Học Viện Khoa Học Và Công Nghệ",
        "type": "career",
        "category": "student_services"
      }
    },
    {
      "type": "Feature",
      "geometry": {
        "type": "Point",
        "coordinates": [
          105.7850556,
          21.0436264
        ]
      },
      "properties": {
        "name": "TCGroup",
        "source_university": "Học Viện Khoa Học Và Công Nghệ",
        "type": "career",
        "category": "student_services"
      }
    },
    {
      "type": "Feature",
      "geometry": {
        "type": "Point",
        "coordinates": [
          105.7856026,
          21.0428617
        ]
      },
      "properties": {
        "name": "Công ty Du học Úc VTN",
        "source_university": "Học Viện Khoa Học Và Công Nghệ",
        "type": "career",
        "category": "student_services"
      }
    },
    {
      "type": "Feature",
      "geometry": {
        "type": "Point",
        "coordinates": [
          105.7869079,
          21.0424906
        ]
      },
      "properties": {
        "name": "Du học Quốc tế Nam Huy",
        "source_university": "Học Viện Khoa Học Và Công Nghệ",
        "type": "career",
        "category": "student_services"
      }
    },
    {
      "type": "Feature",
      "geometry": {
        "type": "Point",
        "coordinates": [
          105.7847074,
          21.0455234
        ]
      },
      "properties": {
        "name": "Haisuco",
        "source_university": "Học Viện Khoa Học Và Công Nghệ",
        "type": "career",
        "category": "student_services"
      }
    },
    {
      "type": "Feature",
      "geometry": {
        "type": "Point",
        "coordinates": [
          105.7856654,
          21.0454691
        ]
      },
      "properties": {
        "name": "Công ty Sakura",
        "source_university": "Học Viện Khoa Học Và Công Nghệ",
        "type": "career",
        "category": "student_services"
      }
    },
    {
      "type": "Feature",
      "geometry": {
        "type": "Point",
        "coordinates": [
          105.7854543,
          21.045564
        ]
      },
      "properties": {
        "name": "Bảo An Education",
        "source_university": "Học Viện Khoa Học Và Công Nghệ",
        "type": "career",
        "category": "student_services"
      }
    },
    {
      "type": "Feature",
      "geometry": {
        "type": "Point",
        "coordinates": [
          105.7840873,
          21.0451104
        ]
      },
      "properties": {
        "name": "Haisuco",
        "source_university": "Học Viện Khoa Học Và Công Nghệ",
        "type": "career",
        "category": "student_services"
      }
    },
    {
      "type": "Feature",
      "geometry": {
        "type": "Point",
        "coordinates": [
          105.7400574,
          21.0265945
        ]
      },
      "properties": {
        "name": "Nhà sách Sư phạm TVHL",
        "source_university": "Học viện Dân tộc",
        "type": "bookstore",
        "category": "student_services"
      }
    },
    {
      "type": "Feature",
      "geometry": {
        "type": "Point",
        "coordinates": [
          105.7341378,
          21.0537349
        ]
      },
      "properties": {
        "name": "Tiệm Photocopy Đức Hạnh",
        "source_university": "Trường Đại học Công nghệ Đông Á",
        "type": "printing",
        "category": "student_services"
      }
    },
    {
      "type": "Feature",
      "geometry": {
        "type": "Point",
        "coordinates": [
          105.7346802,
          21.0531972
        ]
      },
      "properties": {
        "name": "Tiệm Photocoppy",
        "source_university": "Trường Đại học Công nghệ Đông Á",
        "type": "printing",
        "category": "student_services"
      }
    },
    {
      "type": "Feature",
      "geometry": {
        "type": "Point",
        "coordinates": [
          105.7400574,
          21.0265945
        ]
      },
      "properties": {
        "name": "Nhà sách Sư phạm TVHL",
        "source_university": "Trường Đại học Công nghệ Đông Á",
        "type": "bookstore",
        "category": "student_services"
      }
    },
    {
      "type": "Feature",
      "geometry": {
        "type": "Point",
        "coordinates": [
          105.8020409,
          21.0110482
        ]
      },
      "properties": {
        "name": "Photocopy",
        "source_university": "Trường Đại học Giáo dục - ĐHQGHN",
        "type": "printing",
        "category": "student_services"
      }
    },
    {
      "type": "Feature",
      "geometry": {
        "type": "Point",
        "coordinates": [
          105.7975424,
          20.9868867
        ]
      },
      "properties": {
        "name": "Công ty in ấn phú quý, d10-2 cụm làng nghề tập trung triều khúc,",
        "source_university": "Trường Đại học Giáo dục - ĐHQGHN",
        "type": "printing",
        "category": "student_services"
      }
    },
    {
      "type": "Feature",
      "geometry": {
        "type": "Point",
        "coordinates": [
          105.8101915,
          20.9966836
        ]
      },
      "properties": {
        "name": "Nhà sách Phương Thu",
        "source_university": "Trường Đại học Giáo dục - ĐHQGHN",
        "type": "bookstore",
        "category": "student_services"
      }
    },
    {
      "type": "Feature",
      "geometry": {
        "type": "Point",
        "coordinates": [
          105.8122846,
          20.9972432
        ]
      },
      "properties": {
        "name": "ADCBook",
        "source_university": "Trường Đại học Giáo dục - ĐHQGHN",
        "type": "bookstore",
        "category": "student_services"
      }
    },
    {
      "type": "Feature",
      "geometry": {
        "type": "Point",
        "coordinates": [
          105.8026037,
          21.0290757
        ]
      },
      "properties": {
        "name": "In Lan Hương",
        "source_university": "Trường Đại học Tài chính - Ngân hàng Hà Nội",
        "type": "printing",
        "category": "student_services"
      }
    },
    {
      "type": "Feature",
      "geometry": {
        "type": "Point",
        "coordinates": [
          105.8058354,
          21.0231413
        ]
      },
      "properties": {
        "name": "Photo Quang Lịch",
        "source_university": "Trường Đại học Tài chính - Ngân hàng Hà Nội",
        "type": "printing",
        "category": "student_services"
      }
    },
    {
      "type": "Feature",
      "geometry": {
        "type": "Point",
        "coordinates": [
          105.7842032,
          21.0465122
        ]
      },
      "properties": {
        "name": "In ấn, photocopy gần Trường Đại học Tài chính - Ngân hàng Hà Nội",
        "source_university": "Trường Đại học Tài chính - Ngân hàng Hà Nội",
        "type": "printing",
        "category": "student_services"
      }
    },
    {
      "type": "Feature",
      "geometry": {
        "type": "Point",
        "coordinates": [
          105.7842037,
          21.0466927
        ]
      },
      "properties": {
        "name": "In ấn, photocopy gần Trường Đại học Tài chính - Ngân hàng Hà Nội",
        "source_university": "Trường Đại học Tài chính - Ngân hàng Hà Nội",
        "type": "printing",
        "category": "student_services"
      }
    },
    {
      "type": "Feature",
      "geometry": {
        "type": "Point",
        "coordinates": [
          105.7843197,
          21.0475219
        ]
      },
      "properties": {
        "name": "In ấn, photocopy gần Trường Đại học Tài chính - Ngân hàng Hà Nội",
        "source_university": "Trường Đại học Tài chính - Ngân hàng Hà Nội",
        "type": "printing",
        "category": "student_services"
      }
    },
    {
      "type": "Feature",
      "geometry": {
        "type": "Point",
        "coordinates": [
          105.7881889,
          21.044299
        ]
      },
      "properties": {
        "name": "In ấn, photocopy gần Trường Đại học Tài chính - Ngân hàng Hà Nội",
        "source_university": "Trường Đại học Tài chính - Ngân hàng Hà Nội",
        "type": "printing",
        "category": "student_services"
      }
    },
    {
      "type": "Feature",
      "geometry": {
        "type": "Point",
        "coordinates": [
          105.7854681,
          21.0459016
        ]
      },
      "properties": {
        "name": "In ấn Vân Chủ",
        "source_university": "Trường Đại học Tài chính - Ngân hàng Hà Nội",
        "type": "printing",
        "category": "student_services"
      }
    },
    {
      "type": "Feature",
      "geometry": {
        "type": "Point",
        "coordinates": [
          105.7901106,
          21.0436478
        ]
      },
      "properties": {
        "name": "Thành Đạt Photocopy",
        "source_university": "Trường Đại học Tài chính - Ngân hàng Hà Nội",
        "type": "printing",
        "category": "student_services"
      }
    },
    {
      "type": "Feature",
      "geometry": {
        "type": "Point",
        "coordinates": [
          105.781495,
          21.0443756
        ]
      },
      "properties": {
        "name": "In ấn, photocopy gần Trường Đại học Tài chính - Ngân hàng Hà Nội",
        "source_university": "Trường Đại học Tài chính - Ngân hàng Hà Nội",
        "type": "printing",
        "category": "student_services"
      }
    },
    {
      "type": "Feature",
      "geometry": {
        "type": "Point",
        "coordinates": [
          105.7836726,
          21.0403353
        ]
      },
      "properties": {
        "name": "In ấn, photocopy gần Trường Đại học Tài chính - Ngân hàng Hà Nội",
        "source_university": "Trường Đại học Tài chính - Ngân hàng Hà Nội",
        "type": "printing",
        "category": "student_services"
      }
    },
    {
      "type": "Feature",
      "geometry": {
        "type": "Point",
        "coordinates": [
          105.7845544,
          21.0404832
        ]
      },
      "properties": {
        "name": "Ngọc Vinh Photocopy",
        "source_university": "Trường Đại học Tài chính - Ngân hàng Hà Nội",
        "type": "printing",
        "category": "student_services"
      }
    },
    {
      "type": "Feature",
      "geometry": {
        "type": "Point",
        "coordinates": [
          105.7821102,
          21.0382538
        ]
      },
      "properties": {
        "name": "Photo Gia Hay",
        "source_university": "Trường Đại học Tài chính - Ngân hàng Hà Nội",
        "type": "printing",
        "category": "student_services"
      }
    },
    {
      "type": "Feature",
      "geometry": {
        "type": "Point",
        "coordinates": [
          105.8018132,
          21.0366333
        ]
      },
      "properties": {
        "name": "nhà sách Minh Trí",
        "source_university": "Trường Đại học Tài chính - Ngân hàng Hà Nội",
        "type": "bookstore",
        "category": "student_services"
      }
    },
    {
      "type": "Feature",
      "geometry": {
        "type": "Point",
        "coordinates": [
          105.7784416,
          21.0368138
        ]
      },
      "properties": {
        "name": "Nhà sách Sư Phạm",
        "source_university": "Trường Đại học Tài chính - Ngân hàng Hà Nội",
        "type": "bookstore",
        "category": "student_services"
      }
    },
    {
      "type": "Feature",
      "geometry": {
        "type": "Point",
        "coordinates": [
          105.8025212,
          21.0192112
        ]
      },
      "properties": {
        "name": "Nhà sách Tiến Thọ",
        "source_university": "Trường Đại học Tài chính - Ngân hàng Hà Nội",
        "type": "bookstore",
        "category": "student_services"
      }
    },
    {
      "type": "Feature",
      "geometry": {
        "type": "Point",
        "coordinates": [
          105.8058354,
          21.0231413
        ]
      },
      "properties": {
        "name": "Photo Quang Lịch",
        "source_university": "Trường Đại học Tài chính - Ngân hàng Hà Nội",
        "type": "bookstore",
        "category": "student_services"
      }
    },
    {
      "type": "Feature",
      "geometry": {
        "type": "Point",
        "coordinates": [
          105.7813734,
          21.0417064
        ]
      },
      "properties": {
        "name": "Nhà sách Phương Anh",
        "source_university": "Trường Đại học Tài chính - Ngân hàng Hà Nội",
        "type": "bookstore",
        "category": "student_services"
      }
    },
    {
      "type": "Feature",
      "geometry": {
        "type": "Point",
        "coordinates": [
          105.7813339,
          21.0417081
        ]
      },
      "properties": {
        "name": "Nhà sách Quang Khải",
        "source_university": "Trường Đại học Tài chính - Ngân hàng Hà Nội",
        "type": "bookstore",
        "category": "student_services"
      }
    },
    {
      "type": "Feature",
      "geometry": {
        "type": "Point",
        "coordinates": [
          105.7826669,
          21.0416543
        ]
      },
      "properties": {
        "name": "Nhà sách Minh Hải",
        "source_university": "Trường Đại học Tài chính - Ngân hàng Hà Nội",
        "type": "bookstore",
        "category": "student_services"
      }
    },
    {
      "type": "Feature",
      "geometry": {
        "type": "Point",
        "coordinates": [
          105.7827819,
          21.0416507
        ]
      },
      "properties": {
        "name": "Nhà sách Quang Bình",
        "source_university": "Trường Đại học Tài chính - Ngân hàng Hà Nội",
        "type": "bookstore",
        "category": "student_services"
      }
    },
    {
      "type": "Feature",
      "geometry": {
        "type": "Point",
        "coordinates": [
          105.7820469,
          21.0473521
        ]
      },
      "properties": {
        "name": "Nhà xuất bản Công Thương",
        "source_university": "Trường Đại học Tài chính - Ngân hàng Hà Nội",
        "type": "bookstore",
        "category": "student_services"
      }
    },
    {
      "type": "Feature",
      "geometry": {
        "type": "Point",
        "coordinates": [
          105.7815276,
          21.0417006
        ]
      },
      "properties": {
        "name": "Nhà sách Lâm Oanh",
        "source_university": "Trường Đại học Tài chính - Ngân hàng Hà Nội",
        "type": "bookstore",
        "category": "student_services"
      }
    },
    {
      "type": "Feature",
      "geometry": {
        "type": "Point",
        "coordinates": [
          105.7738916,
          21.0375726
        ]
      },
      "properties": {
        "name": "Nhà sách Trí tuệ",
        "source_university": "Trường Đại học Tài chính - Ngân hàng Hà Nội",
        "type": "bookstore",
        "category": "student_services"
      }
    },
    {
      "type": "Feature",
      "geometry": {
        "type": "Point",
        "coordinates": [
          105.7824646,
          21.0416621
        ]
      },
      "properties": {
        "name": "Nhà sách Trang Hiếu",
        "source_university": "Trường Đại học Tài chính - Ngân hàng Hà Nội",
        "type": "bookstore",
        "category": "student_services"
      }
    },
    {
      "type": "Feature",
      "geometry": {
        "type": "Point",
        "coordinates": [
          105.781769,
          21.0416837
        ]
      },
      "properties": {
        "name": "Nhà sách Ngoại Ngữ",
        "source_university": "Trường Đại học Tài chính - Ngân hàng Hà Nội",
        "type": "bookstore",
        "category": "student_services"
      }
    },
    {
      "type": "Feature",
      "geometry": {
        "type": "Point",
        "coordinates": [
          105.7867026,
          21.0419774
        ]
      },
      "properties": {
        "name": "Sách Quang Minh",
        "source_university": "Trường Đại học Tài chính - Ngân hàng Hà Nội",
        "type": "bookstore",
        "category": "student_services"
      }
    },
    {
      "type": "Feature",
      "geometry": {
        "type": "Point",
        "coordinates": [
          105.7812319,
          21.0401194
        ]
      },
      "properties": {
        "name": "Sách hạ giá",
        "source_university": "Trường Đại học Tài chính - Ngân hàng Hà Nội",
        "type": "bookstore",
        "category": "student_services"
      }
    },
    {
      "type": "Feature",
      "geometry": {
        "type": "Point",
        "coordinates": [
          105.7812312,
          21.0400699
        ]
      },
      "properties": {
        "name": "Nhà sách Ngoại ngữ",
        "source_university": "Trường Đại học Tài chính - Ngân hàng Hà Nội",
        "type": "bookstore",
        "category": "student_services"
      }
    },
    {
      "type": "Feature",
      "geometry": {
        "type": "Point",
        "coordinates": [
          105.7822519,
          21.0368697
        ]
      },
      "properties": {
        "name": "VN Book Store",
        "source_university": "Trường Đại học Tài chính - Ngân hàng Hà Nội",
        "type": "bookstore",
        "category": "student_services"
      }
    },
    {
      "type": "Feature",
      "geometry": {
        "type": "Point",
        "coordinates": [
          105.782983,
          21.0368596
        ]
      },
      "properties": {
        "name": "Nhà sách Sư phạm",
        "source_university": "Trường Đại học Tài chính - Ngân hàng Hà Nội",
        "type": "bookstore",
        "category": "student_services"
      }
    },
    {
      "type": "Feature",
      "geometry": {
        "type": "Point",
        "coordinates": [
          105.7842007,
          21.0368403
        ]
      },
      "properties": {
        "name": "Nhà sách Học liệu Sư phạm",
        "source_university": "Trường Đại học Tài chính - Ngân hàng Hà Nội",
        "type": "bookstore",
        "category": "student_services"
      }
    },
    {
      "type": "Feature",
      "geometry": {
        "type": "Point",
        "coordinates": [
          105.7819606,
          21.0358245
        ]
      },
      "properties": {
        "name": "Nhã Nam Books N' Coffee",
        "source_university": "Trường Đại học Tài chính - Ngân hàng Hà Nội",
        "type": "bookstore",
        "category": "student_services"
      }
    },
    {
      "type": "Feature",
      "geometry": {
        "type": "Point",
        "coordinates": [
          105.7959423,
          21.0425971
        ]
      },
      "properties": {
        "name": "Hiệu sách, giáo trình gần Trường Đại học Tài chính - Ngân hàng Hà Nội",
        "source_university": "Trường Đại học Tài chính - Ngân hàng Hà Nội",
        "type": "bookstore",
        "category": "student_services"
      }
    },
    {
      "type": "Feature",
      "geometry": {
        "type": "Point",
        "coordinates": [
          105.7831995,
          21.0470577
        ]
      },
      "properties": {
        "name": "Công ty tư vấn du học Thiên Bình",
        "source_university": "Trường Đại học Tài chính - Ngân hàng Hà Nội",
        "type": "career",
        "category": "student_services"
      }
    },
    {
      "type": "Feature",
      "geometry": {
        "type": "Point",
        "coordinates": [
          105.7862354,
          21.0454042
        ]
      },
      "properties": {
        "name": "Hanna",
        "source_university": "Trường Đại học Tài chính - Ngân hàng Hà Nội",
        "type": "career",
        "category": "student_services"
      }
    },
    {
      "type": "Feature",
      "geometry": {
        "type": "Point",
        "coordinates": [
          105.785543,
          21.0453368
        ]
      },
      "properties": {
        "name": "Vinasimex",
        "source_university": "Trường Đại học Tài chính - Ngân hàng Hà Nội",
        "type": "career",
        "category": "student_services"
      }
    },
    {
      "type": "Feature",
      "geometry": {
        "type": "Point",
        "coordinates": [
          105.7858436,
          21.0449105
        ]
      },
      "properties": {
        "name": "Hoàng Anh Visa",
        "source_university": "Trường Đại học Tài chính - Ngân hàng Hà Nội",
        "type": "career",
        "category": "student_services"
      }
    },
    {
      "type": "Feature",
      "geometry": {
        "type": "Point",
        "coordinates": [
          105.7859759,
          21.044491
        ]
      },
      "properties": {
        "name": "Công ty Phúc Thái",
        "source_university": "Trường Đại học Tài chính - Ngân hàng Hà Nội",
        "type": "career",
        "category": "student_services"
      }
    },
    {
      "type": "Feature",
      "geometry": {
        "type": "Point",
        "coordinates": [
          105.7858586,
          21.0435659
        ]
      },
      "properties": {
        "name": "Du học Đại Nam",
        "source_university": "Trường Đại học Tài chính - Ngân hàng Hà Nội",
        "type": "career",
        "category": "student_services"
      }
    },
    {
      "type": "Feature",
      "geometry": {
        "type": "Point",
        "coordinates": [
          105.7850556,
          21.0436264
        ]
      },
      "properties": {
        "name": "TCGroup",
        "source_university": "Trường Đại học Tài chính - Ngân hàng Hà Nội",
        "type": "career",
        "category": "student_services"
      }
    },
    {
      "type": "Feature",
      "geometry": {
        "type": "Point",
        "coordinates": [
          105.7856026,
          21.0428617
        ]
      },
      "properties": {
        "name": "Công ty Du học Úc VTN",
        "source_university": "Trường Đại học Tài chính - Ngân hàng Hà Nội",
        "type": "career",
        "category": "student_services"
      }
    },
    {
      "type": "Feature",
      "geometry": {
        "type": "Point",
        "coordinates": [
          105.7869079,
          21.0424906
        ]
      },
      "properties": {
        "name": "Du học Quốc tế Nam Huy",
        "source_university": "Trường Đại học Tài chính - Ngân hàng Hà Nội",
        "type": "career",
        "category": "student_services"
      }
    },
    {
      "type": "Feature",
      "geometry": {
        "type": "Point",
        "coordinates": [
          105.7847074,
          21.0455234
        ]
      },
      "properties": {
        "name": "Haisuco",
        "source_university": "Trường Đại học Tài chính - Ngân hàng Hà Nội",
        "type": "career",
        "category": "student_services"
      }
    },
    {
      "type": "Feature",
      "geometry": {
        "type": "Point",
        "coordinates": [
          105.7856654,
          21.0454691
        ]
      },
      "properties": {
        "name": "Công ty Sakura",
        "source_university": "Trường Đại học Tài chính - Ngân hàng Hà Nội",
        "type": "career",
        "category": "student_services"
      }
    },
    {
      "type": "Feature",
      "geometry": {
        "type": "Point",
        "coordinates": [
          105.7854543,
          21.045564
        ]
      },
      "properties": {
        "name": "Bảo An Education",
        "source_university": "Trường Đại học Tài chính - Ngân hàng Hà Nội",
        "type": "career",
        "category": "student_services"
      }
    },
    {
      "type": "Feature",
      "geometry": {
        "type": "Point",
        "coordinates": [
          105.7840873,
          21.0451104
        ]
      },
      "properties": {
        "name": "Haisuco",
        "source_university": "Trường Đại học Tài chính - Ngân hàng Hà Nội",
        "type": "career",
        "category": "student_services"
      }
    },
    {
      "type": "Feature",
      "geometry": {
        "type": "Point",
        "coordinates": [
          105.8026037,
          21.0290757
        ]
      },
      "properties": {
        "name": "In Lan Hương",
        "source_university": "Đại học Kinh tế",
        "type": "printing",
        "category": "student_services"
      }
    },
    {
      "type": "Feature",
      "geometry": {
        "type": "Point",
        "coordinates": [
          105.7842032,
          21.0465122
        ]
      },
      "properties": {
        "name": "In ấn, photocopy gần Đại học Kinh tế",
        "source_university": "Đại học Kinh tế",
        "type": "printing",
        "category": "student_services"
      }
    },
    {
      "type": "Feature",
      "geometry": {
        "type": "Point",
        "coordinates": [
          105.7842037,
          21.0466927
        ]
      },
      "properties": {
        "name": "In ấn, photocopy gần Đại học Kinh tế",
        "source_university": "Đại học Kinh tế",
        "type": "printing",
        "category": "student_services"
      }
    },
    {
      "type": "Feature",
      "geometry": {
        "type": "Point",
        "coordinates": [
          105.7843197,
          21.0475219
        ]
      },
      "properties": {
        "name": "In ấn, photocopy gần Đại học Kinh tế",
        "source_university": "Đại học Kinh tế",
        "type": "printing",
        "category": "student_services"
      }
    },
    {
      "type": "Feature",
      "geometry": {
        "type": "Point",
        "coordinates": [
          105.7881889,
          21.044299
        ]
      },
      "properties": {
        "name": "In ấn, photocopy gần Đại học Kinh tế",
        "source_university": "Đại học Kinh tế",
        "type": "printing",
        "category": "student_services"
      }
    },
    {
      "type": "Feature",
      "geometry": {
        "type": "Point",
        "coordinates": [
          105.7854681,
          21.0459016
        ]
      },
      "properties": {
        "name": "In ấn Vân Chủ",
        "source_university": "Đại học Kinh tế",
        "type": "printing",
        "category": "student_services"
      }
    },
    {
      "type": "Feature",
      "geometry": {
        "type": "Point",
        "coordinates": [
          105.7901106,
          21.0436478
        ]
      },
      "properties": {
        "name": "Thành Đạt Photocopy",
        "source_university": "Đại học Kinh tế",
        "type": "printing",
        "category": "student_services"
      }
    },
    {
      "type": "Feature",
      "geometry": {
        "type": "Point",
        "coordinates": [
          105.781495,
          21.0443756
        ]
      },
      "properties": {
        "name": "In ấn, photocopy gần Đại học Kinh tế",
        "source_university": "Đại học Kinh tế",
        "type": "printing",
        "category": "student_services"
      }
    },
    {
      "type": "Feature",
      "geometry": {
        "type": "Point",
        "coordinates": [
          105.7836726,
          21.0403353
        ]
      },
      "properties": {
        "name": "In ấn, photocopy gần Đại học Kinh tế",
        "source_university": "Đại học Kinh tế",
        "type": "printing",
        "category": "student_services"
      }
    },
    {
      "type": "Feature",
      "geometry": {
        "type": "Point",
        "coordinates": [
          105.7845544,
          21.0404832
        ]
      },
      "properties": {
        "name": "Ngọc Vinh Photocopy",
        "source_university": "Đại học Kinh tế",
        "type": "printing",
        "category": "student_services"
      }
    },
    {
      "type": "Feature",
      "geometry": {
        "type": "Point",
        "coordinates": [
          105.7821102,
          21.0382538
        ]
      },
      "properties": {
        "name": "Photo Gia Hay",
        "source_university": "Đại học Kinh tế",
        "type": "printing",
        "category": "student_services"
      }
    },
    {
      "type": "Feature",
      "geometry": {
        "type": "Point",
        "coordinates": [
          105.8018132,
          21.0366333
        ]
      },
      "properties": {
        "name": "nhà sách Minh Trí",
        "source_university": "Đại học Kinh tế",
        "type": "bookstore",
        "category": "student_services"
      }
    },
    {
      "type": "Feature",
      "geometry": {
        "type": "Point",
        "coordinates": [
          105.7784416,
          21.0368138
        ]
      },
      "properties": {
        "name": "Nhà sách Sư Phạm",
        "source_university": "Đại học Kinh tế",
        "type": "bookstore",
        "category": "student_services"
      }
    },
    {
      "type": "Feature",
      "geometry": {
        "type": "Point",
        "coordinates": [
          105.7813734,
          21.0417064
        ]
      },
      "properties": {
        "name": "Nhà sách Phương Anh",
        "source_university": "Đại học Kinh tế",
        "type": "bookstore",
        "category": "student_services"
      }
    },
    {
      "type": "Feature",
      "geometry": {
        "type": "Point",
        "coordinates": [
          105.7813339,
          21.0417081
        ]
      },
      "properties": {
        "name": "Nhà sách Quang Khải",
        "source_university": "Đại học Kinh tế",
        "type": "bookstore",
        "category": "student_services"
      }
    },
    {
      "type": "Feature",
      "geometry": {
        "type": "Point",
        "coordinates": [
          105.7826669,
          21.0416543
        ]
      },
      "properties": {
        "name": "Nhà sách Minh Hải",
        "source_university": "Đại học Kinh tế",
        "type": "bookstore",
        "category": "student_services"
      }
    },
    {
      "type": "Feature",
      "geometry": {
        "type": "Point",
        "coordinates": [
          105.7827819,
          21.0416507
        ]
      },
      "properties": {
        "name": "Nhà sách Quang Bình",
        "source_university": "Đại học Kinh tế",
        "type": "bookstore",
        "category": "student_services"
      }
    },
    {
      "type": "Feature",
      "geometry": {
        "type": "Point",
        "coordinates": [
          105.7820469,
          21.0473521
        ]
      },
      "properties": {
        "name": "Nhà xuất bản Công Thương",
        "source_university": "Đại học Kinh tế",
        "type": "bookstore",
        "category": "student_services"
      }
    },
    {
      "type": "Feature",
      "geometry": {
        "type": "Point",
        "coordinates": [
          105.7815276,
          21.0417006
        ]
      },
      "properties": {
        "name": "Nhà sách Lâm Oanh",
        "source_university": "Đại học Kinh tế",
        "type": "bookstore",
        "category": "student_services"
      }
    },
    {
      "type": "Feature",
      "geometry": {
        "type": "Point",
        "coordinates": [
          105.7738916,
          21.0375726
        ]
      },
      "properties": {
        "name": "Nhà sách Trí tuệ",
        "source_university": "Đại học Kinh tế",
        "type": "bookstore",
        "category": "student_services"
      }
    },
    {
      "type": "Feature",
      "geometry": {
        "type": "Point",
        "coordinates": [
          105.7824646,
          21.0416621
        ]
      },
      "properties": {
        "name": "Nhà sách Trang Hiếu",
        "source_university": "Đại học Kinh tế",
        "type": "bookstore",
        "category": "student_services"
      }
    },
    {
      "type": "Feature",
      "geometry": {
        "type": "Point",
        "coordinates": [
          105.781769,
          21.0416837
        ]
      },
      "properties": {
        "name": "Nhà sách Ngoại Ngữ",
        "source_university": "Đại học Kinh tế",
        "type": "bookstore",
        "category": "student_services"
      }
    },
    {
      "type": "Feature",
      "geometry": {
        "type": "Point",
        "coordinates": [
          105.7867026,
          21.0419774
        ]
      },
      "properties": {
        "name": "Sách Quang Minh",
        "source_university": "Đại học Kinh tế",
        "type": "bookstore",
        "category": "student_services"
      }
    },
    {
      "type": "Feature",
      "geometry": {
        "type": "Point",
        "coordinates": [
          105.7812319,
          21.0401194
        ]
      },
      "properties": {
        "name": "Sách hạ giá",
        "source_university": "Đại học Kinh tế",
        "type": "bookstore",
        "category": "student_services"
      }
    },
    {
      "type": "Feature",
      "geometry": {
        "type": "Point",
        "coordinates": [
          105.7812312,
          21.0400699
        ]
      },
      "properties": {
        "name": "Nhà sách Ngoại ngữ",
        "source_university": "Đại học Kinh tế",
        "type": "bookstore",
        "category": "student_services"
      }
    },
    {
      "type": "Feature",
      "geometry": {
        "type": "Point",
        "coordinates": [
          105.7822519,
          21.0368697
        ]
      },
      "properties": {
        "name": "VN Book Store",
        "source_university": "Đại học Kinh tế",
        "type": "bookstore",
        "category": "student_services"
      }
    },
    {
      "type": "Feature",
      "geometry": {
        "type": "Point",
        "coordinates": [
          105.782983,
          21.0368596
        ]
      },
      "properties": {
        "name": "Nhà sách Sư phạm",
        "source_university": "Đại học Kinh tế",
        "type": "bookstore",
        "category": "student_services"
      }
    },
    {
      "type": "Feature",
      "geometry": {
        "type": "Point",
        "coordinates": [
          105.7842007,
          21.0368403
        ]
      },
      "properties": {
        "name": "Nhà sách Học liệu Sư phạm",
        "source_university": "Đại học Kinh tế",
        "type": "bookstore",
        "category": "student_services"
      }
    },
    {
      "type": "Feature",
      "geometry": {
        "type": "Point",
        "coordinates": [
          105.7819606,
          21.0358245
        ]
      },
      "properties": {
        "name": "Nhã Nam Books N' Coffee",
        "source_university": "Đại học Kinh tế",
        "type": "bookstore",
        "category": "student_services"
      }
    },
    {
      "type": "Feature",
      "geometry": {
        "type": "Point",
        "coordinates": [
          105.7959423,
          21.0425971
        ]
      },
      "properties": {
        "name": "Hiệu sách, giáo trình gần Đại học Kinh tế",
        "source_university": "Đại học Kinh tế",
        "type": "bookstore",
        "category": "student_services"
      }
    },
    {
      "type": "Feature",
      "geometry": {
        "type": "Point",
        "coordinates": [
          105.7831995,
          21.0470577
        ]
      },
      "properties": {
        "name": "Công ty tư vấn du học Thiên Bình",
        "source_university": "Đại học Kinh tế",
        "type": "career",
        "category": "student_services"
      }
    },
    {
      "type": "Feature",
      "geometry": {
        "type": "Point",
        "coordinates": [
          105.7862354,
          21.0454042
        ]
      },
      "properties": {
        "name": "Hanna",
        "source_university": "Đại học Kinh tế",
        "type": "career",
        "category": "student_services"
      }
    },
    {
      "type": "Feature",
      "geometry": {
        "type": "Point",
        "coordinates": [
          105.785543,
          21.0453368
        ]
      },
      "properties": {
        "name": "Vinasimex",
        "source_university": "Đại học Kinh tế",
        "type": "career",
        "category": "student_services"
      }
    },
    {
      "type": "Feature",
      "geometry": {
        "type": "Point",
        "coordinates": [
          105.7858436,
          21.0449105
        ]
      },
      "properties": {
        "name": "Hoàng Anh Visa",
        "source_university": "Đại học Kinh tế",
        "type": "career",
        "category": "student_services"
      }
    },
    {
      "type": "Feature",
      "geometry": {
        "type": "Point",
        "coordinates": [
          105.7859759,
          21.044491
        ]
      },
      "properties": {
        "name": "Công ty Phúc Thái",
        "source_university": "Đại học Kinh tế",
        "type": "career",
        "category": "student_services"
      }
    },
    {
      "type": "Feature",
      "geometry": {
        "type": "Point",
        "coordinates": [
          105.7858586,
          21.0435659
        ]
      },
      "properties": {
        "name": "Du học Đại Nam",
        "source_university": "Đại học Kinh tế",
        "type": "career",
        "category": "student_services"
      }
    },
    {
      "type": "Feature",
      "geometry": {
        "type": "Point",
        "coordinates": [
          105.7850556,
          21.0436264
        ]
      },
      "properties": {
        "name": "TCGroup",
        "source_university": "Đại học Kinh tế",
        "type": "career",
        "category": "student_services"
      }
    },
    {
      "type": "Feature",
      "geometry": {
        "type": "Point",
        "coordinates": [
          105.7856026,
          21.0428617
        ]
      },
      "properties": {
        "name": "Công ty Du học Úc VTN",
        "source_university": "Đại học Kinh tế",
        "type": "career",
        "category": "student_services"
      }
    },
    {
      "type": "Feature",
      "geometry": {
        "type": "Point",
        "coordinates": [
          105.7869079,
          21.0424906
        ]
      },
      "properties": {
        "name": "Du học Quốc tế Nam Huy",
        "source_university": "Đại học Kinh tế",
        "type": "career",
        "category": "student_services"
      }
    },
    {
      "type": "Feature",
      "geometry": {
        "type": "Point",
        "coordinates": [
          105.7847074,
          21.0455234
        ]
      },
      "properties": {
        "name": "Haisuco",
        "source_university": "Đại học Kinh tế",
        "type": "career",
        "category": "student_services"
      }
    },
    {
      "type": "Feature",
      "geometry": {
        "type": "Point",
        "coordinates": [
          105.7856654,
          21.0454691
        ]
      },
      "properties": {
        "name": "Công ty Sakura",
        "source_university": "Đại học Kinh tế",
        "type": "career",
        "category": "student_services"
      }
    },
    {
      "type": "Feature",
      "geometry": {
        "type": "Point",
        "coordinates": [
          105.7854543,
          21.045564
        ]
      },
      "properties": {
        "name": "Bảo An Education",
        "source_university": "Đại học Kinh tế",
        "type": "career",
        "category": "student_services"
      }
    },
    {
      "type": "Feature",
      "geometry": {
        "type": "Point",
        "coordinates": [
          105.7840873,
          21.0451104
        ]
      },
      "properties": {
        "name": "Haisuco",
        "source_university": "Đại học Kinh tế",
        "type": "career",
        "category": "student_services"
      }
    },
    {
      "type": "Feature",
      "geometry": {
        "type": "Point",
        "coordinates": [
          105.8026037,
          21.0290757
        ]
      },
      "properties": {
        "name": "In Lan Hương",
        "source_university": "Đại học Luật",
        "type": "printing",
        "category": "student_services"
      }
    },
    {
      "type": "Feature",
      "geometry": {
        "type": "Point",
        "coordinates": [
          105.7842032,
          21.0465122
        ]
      },
      "properties": {
        "name": "In ấn, photocopy gần Đại học Luật",
        "source_university": "Đại học Luật",
        "type": "printing",
        "category": "student_services"
      }
    },
    {
      "type": "Feature",
      "geometry": {
        "type": "Point",
        "coordinates": [
          105.7842037,
          21.0466927
        ]
      },
      "properties": {
        "name": "In ấn, photocopy gần Đại học Luật",
        "source_university": "Đại học Luật",
        "type": "printing",
        "category": "student_services"
      }
    },
    {
      "type": "Feature",
      "geometry": {
        "type": "Point",
        "coordinates": [
          105.7843197,
          21.0475219
        ]
      },
      "properties": {
        "name": "In ấn, photocopy gần Đại học Luật",
        "source_university": "Đại học Luật",
        "type": "printing",
        "category": "student_services"
      }
    },
    {
      "type": "Feature",
      "geometry": {
        "type": "Point",
        "coordinates": [
          105.7881889,
          21.044299
        ]
      },
      "properties": {
        "name": "In ấn, photocopy gần Đại học Luật",
        "source_university": "Đại học Luật",
        "type": "printing",
        "category": "student_services"
      }
    },
    {
      "type": "Feature",
      "geometry": {
        "type": "Point",
        "coordinates": [
          105.7854681,
          21.0459016
        ]
      },
      "properties": {
        "name": "In ấn Vân Chủ",
        "source_university": "Đại học Luật",
        "type": "printing",
        "category": "student_services"
      }
    },
    {
      "type": "Feature",
      "geometry": {
        "type": "Point",
        "coordinates": [
          105.7901106,
          21.0436478
        ]
      },
      "properties": {
        "name": "Thành Đạt Photocopy",
        "source_university": "Đại học Luật",
        "type": "printing",
        "category": "student_services"
      }
    },
    {
      "type": "Feature",
      "geometry": {
        "type": "Point",
        "coordinates": [
          105.781495,
          21.0443756
        ]
      },
      "properties": {
        "name": "In ấn, photocopy gần Đại học Luật",
        "source_university": "Đại học Luật",
        "type": "printing",
        "category": "student_services"
      }
    },
    {
      "type": "Feature",
      "geometry": {
        "type": "Point",
        "coordinates": [
          105.7836726,
          21.0403353
        ]
      },
      "properties": {
        "name": "In ấn, photocopy gần Đại học Luật",
        "source_university": "Đại học Luật",
        "type": "printing",
        "category": "student_services"
      }
    },
    {
      "type": "Feature",
      "geometry": {
        "type": "Point",
        "coordinates": [
          105.7845544,
          21.0404832
        ]
      },
      "properties": {
        "name": "Ngọc Vinh Photocopy",
        "source_university": "Đại học Luật",
        "type": "printing",
        "category": "student_services"
      }
    },
    {
      "type": "Feature",
      "geometry": {
        "type": "Point",
        "coordinates": [
          105.7821102,
          21.0382538
        ]
      },
      "properties": {
        "name": "Photo Gia Hay",
        "source_university": "Đại học Luật",
        "type": "printing",
        "category": "student_services"
      }
    },
    {
      "type": "Feature",
      "geometry": {
        "type": "Point",
        "coordinates": [
          105.8018132,
          21.0366333
        ]
      },
      "properties": {
        "name": "nhà sách Minh Trí",
        "source_university": "Đại học Luật",
        "type": "bookstore",
        "category": "student_services"
      }
    },
    {
      "type": "Feature",
      "geometry": {
        "type": "Point",
        "coordinates": [
          105.7784416,
          21.0368138
        ]
      },
      "properties": {
        "name": "Nhà sách Sư Phạm",
        "source_university": "Đại học Luật",
        "type": "bookstore",
        "category": "student_services"
      }
    },
    {
      "type": "Feature",
      "geometry": {
        "type": "Point",
        "coordinates": [
          105.7813734,
          21.0417064
        ]
      },
      "properties": {
        "name": "Nhà sách Phương Anh",
        "source_university": "Đại học Luật",
        "type": "bookstore",
        "category": "student_services"
      }
    },
    {
      "type": "Feature",
      "geometry": {
        "type": "Point",
        "coordinates": [
          105.7813339,
          21.0417081
        ]
      },
      "properties": {
        "name": "Nhà sách Quang Khải",
        "source_university": "Đại học Luật",
        "type": "bookstore",
        "category": "student_services"
      }
    },
    {
      "type": "Feature",
      "geometry": {
        "type": "Point",
        "coordinates": [
          105.7826669,
          21.0416543
        ]
      },
      "properties": {
        "name": "Nhà sách Minh Hải",
        "source_university": "Đại học Luật",
        "type": "bookstore",
        "category": "student_services"
      }
    },
    {
      "type": "Feature",
      "geometry": {
        "type": "Point",
        "coordinates": [
          105.7827819,
          21.0416507
        ]
      },
      "properties": {
        "name": "Nhà sách Quang Bình",
        "source_university": "Đại học Luật",
        "type": "bookstore",
        "category": "student_services"
      }
    },
    {
      "type": "Feature",
      "geometry": {
        "type": "Point",
        "coordinates": [
          105.7820469,
          21.0473521
        ]
      },
      "properties": {
        "name": "Nhà xuất bản Công Thương",
        "source_university": "Đại học Luật",
        "type": "bookstore",
        "category": "student_services"
      }
    },
    {
      "type": "Feature",
      "geometry": {
        "type": "Point",
        "coordinates": [
          105.7815276,
          21.0417006
        ]
      },
      "properties": {
        "name": "Nhà sách Lâm Oanh",
        "source_university": "Đại học Luật",
        "type": "bookstore",
        "category": "student_services"
      }
    },
    {
      "type": "Feature",
      "geometry": {
        "type": "Point",
        "coordinates": [
          105.7738916,
          21.0375726
        ]
      },
      "properties": {
        "name": "Nhà sách Trí tuệ",
        "source_university": "Đại học Luật",
        "type": "bookstore",
        "category": "student_services"
      }
    },
    {
      "type": "Feature",
      "geometry": {
        "type": "Point",
        "coordinates": [
          105.7824646,
          21.0416621
        ]
      },
      "properties": {
        "name": "Nhà sách Trang Hiếu",
        "source_university": "Đại học Luật",
        "type": "bookstore",
        "category": "student_services"
      }
    },
    {
      "type": "Feature",
      "geometry": {
        "type": "Point",
        "coordinates": [
          105.781769,
          21.0416837
        ]
      },
      "properties": {
        "name": "Nhà sách Ngoại Ngữ",
        "source_university": "Đại học Luật",
        "type": "bookstore",
        "category": "student_services"
      }
    },
    {
      "type": "Feature",
      "geometry": {
        "type": "Point",
        "coordinates": [
          105.7867026,
          21.0419774
        ]
      },
      "properties": {
        "name": "Sách Quang Minh",
        "source_university": "Đại học Luật",
        "type": "bookstore",
        "category": "student_services"
      }
    },
    {
      "type": "Feature",
      "geometry": {
        "type": "Point",
        "coordinates": [
          105.7812319,
          21.0401194
        ]
      },
      "properties": {
        "name": "Sách hạ giá",
        "source_university": "Đại học Luật",
        "type": "bookstore",
        "category": "student_services"
      }
    },
    {
      "type": "Feature",
      "geometry": {
        "type": "Point",
        "coordinates": [
          105.7812312,
          21.0400699
        ]
      },
      "properties": {
        "name": "Nhà sách Ngoại ngữ",
        "source_university": "Đại học Luật",
        "type": "bookstore",
        "category": "student_services"
      }
    },
    {
      "type": "Feature",
      "geometry": {
        "type": "Point",
        "coordinates": [
          105.7822519,
          21.0368697
        ]
      },
      "properties": {
        "name": "VN Book Store",
        "source_university": "Đại học Luật",
        "type": "bookstore",
        "category": "student_services"
      }
    },
    {
      "type": "Feature",
      "geometry": {
        "type": "Point",
        "coordinates": [
          105.782983,
          21.0368596
        ]
      },
      "properties": {
        "name": "Nhà sách Sư phạm",
        "source_university": "Đại học Luật",
        "type": "bookstore",
        "category": "student_services"
      }
    },
    {
      "type": "Feature",
      "geometry": {
        "type": "Point",
        "coordinates": [
          105.7842007,
          21.0368403
        ]
      },
      "properties": {
        "name": "Nhà sách Học liệu Sư phạm",
        "source_university": "Đại học Luật",
        "type": "bookstore",
        "category": "student_services"
      }
    },
    {
      "type": "Feature",
      "geometry": {
        "type": "Point",
        "coordinates": [
          105.7819606,
          21.0358245
        ]
      },
      "properties": {
        "name": "Nhã Nam Books N' Coffee",
        "source_university": "Đại học Luật",
        "type": "bookstore",
        "category": "student_services"
      }
    },
    {
      "type": "Feature",
      "geometry": {
        "type": "Point",
        "coordinates": [
          105.7959423,
          21.0425971
        ]
      },
      "properties": {
        "name": "Hiệu sách, giáo trình gần Đại học Luật",
        "source_university": "Đại học Luật",
        "type": "bookstore",
        "category": "student_services"
      }
    },
    {
      "type": "Feature",
      "geometry": {
        "type": "Point",
        "coordinates": [
          105.7831995,
          21.0470577
        ]
      },
      "properties": {
        "name": "Công ty tư vấn du học Thiên Bình",
        "source_university": "Đại học Luật",
        "type": "career",
        "category": "student_services"
      }
    },
    {
      "type": "Feature",
      "geometry": {
        "type": "Point",
        "coordinates": [
          105.7862354,
          21.0454042
        ]
      },